{"geometry": {"type": "Point", "coordinates": [131.041473389, -12.523059845]}, "type": "Feature", "id": "SG_2uPWew1lZQQWByErSOUo95_-12.523060_131.041473@1303236331", "properties": {"province": "NT", "city": "Coolalinga", "name": "Litchfield Vet Hospital", "tags": ["surgeon"], "country": "AU", "classifiers": [{"category": "Retail", "type": "Services", "subcategory": "Veterinary Services"}], "phone": "+61 8 8983 2838", "href": "http://api.simplegeo.com/1.0/features/SG_2uPWew1lZQQWByErSOUo95_-12.523060_131.041473@1303236331.json", "address": "Shop 1-2 Coolalinga Shopping Village", "owner": "simplegeo", "postcode": "0835"}}
{"geometry": {"type": "Point", "coordinates": [131.045791626, -12.4962596893]}, "type": "Feature", "id": "SG_6TlWKSLKgvgSJOa4rdCewN_-12.496260_131.045792@1303236333", "properties": {"province": "NT", "city": "Howard Springs", "name": "Campbells Tree Services", "tags": ["stump", "tree", "felling", "removal"], "country": "AU", "classifiers": [{"category": "Building & Trades", "type": "Services", "subcategory": "Landscaping Services"}], "phone": "+61 8 8983 3227", "href": "http://api.simplegeo.com/1.0/features/SG_6TlWKSLKgvgSJOa4rdCewN_-12.496260_131.045792@1303236333.json", "address": "PO Box 606", "owner": "simplegeo", "postcode": "0835"}}
{"geometry": {"type": "Point", "coordinates": [131.054000855, -12.5193099976]}, "type": "Feature", "id": "SG_6H3phNCsaIi0XX7n4nBBJB_-12.519310_131.054001@1303236333", "properties": {"province": "NT", "city": "Howard Springs", "name": "Howard Springs Pet Meat Pty Ltd", "tags": ["food"], "country": "AU", "classifiers": [{"category": "Shopping", "type": "Retail Goods", "subcategory": "Pets & Pet Supplies"}], "phone": "+61 8 8983 1223", "href": "http://api.simplegeo.com/1.0/features/SG_6H3phNCsaIi0XX7n4nBBJB_-12.519310_131.054001@1303236333.json", "address": "Mahaffey Rd", "owner": "simplegeo", "postcode": "0835"}}
{"geometry": {"type": "Point", "coordinates": [131.045791626, -12.4962596893]}, "type": "Feature", "id": "SG_6xWZASenocOrRoHRY04AhN_-12.496260_131.045792@1303236333", "properties": {"province": "NT", "city": "Howard Springs", "name": "Arnhemland Barramundi Nature Lodge", "tags": ["trip"], "country": "AU", "classifiers": [{"category": "Recreation", "type": "Entertainment", "subcategory": "Fishing"}], "phone": "+61 8 8983 1544", "href": "http://api.simplegeo.com/1.0/features/SG_6xWZASenocOrRoHRY04AhN_-12.496260_131.045792@1303236333.json", "address": "PO Box 571", "owner": "simplegeo", "postcode": "0835"}}
{"geometry": {"type": "Point", "coordinates": [131.045791626, -12.4962596893]}, "type": "Feature", "id": "SG_2YuvfYpPhzwobKoJRFoSye_-12.496260_131.045792@1303236333", "properties": {"province": "NT", "city": "Howard Springs", "name": "Northcoast Marina Development Pty Ltd", "tags": ["equipment", "pile", "contractor"], "country": "AU", "classifiers": [{"category": "Retail", "type": "Services", "subcategory": "Driving School"}], "phone": "+61 8 8983 3636", "href": "http://api.simplegeo.com/1.0/features/SG_2YuvfYpPhzwobKoJRFoSye_-12.496260_131.045792@1303236333.json", "address": "P O Box 335", "owner": "simplegeo", "postcode": "0835"}}
{"geometry": {"type": "Point", "coordinates": [131.068466186, -12.4671106339]}, "type": "Feature", "id": "SG_3eWcXctM1nokl8h6M1nUdB_-12.467111_131.068466@1303236333", "properties": {"province": "NT", "city": "Howard Springs", "name": "Bradceil Pty Ltd", "tags": ["shop", "fitting"], "country": "AU", "classifiers": [{"category": "Professional", "type": "Services", "subcategory": ""}], "phone": "+61 409 899 400", "href": "http://api.simplegeo.com/1.0/features/SG_3eWcXctM1nokl8h6M1nUdB_-12.467111_131.068466@1303236333.json", "address": "12 Melaleuca Rd", "owner": "simplegeo", "postcode": "0835"}}
{"geometry": {"type": "Point", "coordinates": [131.029281616, -12.5275402069]}, "type": "Feature", "id": "SG_7Cs59zAD0vhjOGVkcYS7kB_-12.527540_131.029282@1303236333", "properties": {"province": "NT", "city": "Virginia", "name": "Jaysea Lures", "tags": ["tackle"], "country": "AU", "classifiers": [{"category": "Recreation", "type": "Entertainment", "subcategory": "Fishing"}], "phone": "+61 8 8988 9395", "href": "http://api.simplegeo.com/1.0/features/SG_7Cs59zAD0vhjOGVkcYS7kB_-12.527540_131.029282@1303236333.json", "address": "PO Box 102", "owner": "simplegeo", "postcode": "0835"}}
{"geometry": {"type": "Point", "coordinates": [131.045791626, -12.4962596893]}, "type": "Feature", "id": "SG_0ntCHHGZLa06MQzIIpqm8p_-12.496260_131.045792@1303236333", "properties": {"province": "NT", "city": "Howard Springs", "name": "Two Jays Trenching Pty Ltd", "tags": ["earth", "excavating", "moving", "contractor"], "country": "AU", "classifiers": [{"category": "Building & Trades", "type": "Services", "subcategory": "Construction"}], "phone": "+61 8 8983 1653", "href": "http://api.simplegeo.com/1.0/features/SG_0ntCHHGZLa06MQzIIpqm8p_-12.496260_131.045792@1303236333.json", "address": "PO Box 92", "owner": "simplegeo", "postcode": "0835"}}
{"geometry": {"type": "Point", "coordinates": [131.045791626, -12.4962596893]}, "type": "Feature", "id": "SG_0hGq357v4MNf5LLrwz6QfY_-12.496260_131.045792@1303236333", "properties": {"province": "NT", "city": "Howard Springs", "name": "RIP Mowing & Gardening Service", "tags": ["lawn", "cutting", "maintenance"], "country": "AU", "classifiers": [{"category": "Home & Garden", "type": "Retail Goods", "subcategory": "Building Materials"}], "phone": "+61 402 495 287", "href": "http://api.simplegeo.com/1.0/features/SG_0hGq357v4MNf5LLrwz6QfY_-12.496260_131.045792@1303236333.json", "address": "PO Box 287", "owner": "simplegeo", "postcode": "0835"}}
{"geometry": {"type": "Point", "coordinates": [131.033248901, -12.5203790665]}, "type": "Feature", "id": "SG_3MDlOnYBUx8ktSSXkfOZ9w_-12.520379_131.033249@1303236333", "properties": {"province": "NT", "city": "Howard Springs", "name": "All Earth Industries", "tags": ["heavy", "carrier"], "country": "AU", "classifiers": [{"category": "Commercial Area", "type": "Public Place", "subcategory": ""}], "phone": "+61 8 8983 1567", "href": "http://api.simplegeo.com/1.0/features/SG_3MDlOnYBUx8ktSSXkfOZ9w_-12.520379_131.033249@1303236333.json", "address": "Henning Rd", "owner": "simplegeo", "postcode": "0835"}}
{"geometry": {"type": "Point", "coordinates": [131.044464111, -12.4963645935]}, "type": "Feature", "id": "SG_5NJgWdm7xmU6wwNqQfqBco_-12.496365_131.044464@1303236333", "properties": {"province": "NT", "city": "Howard Springs", "name": "Howard Springs Supermarket", "tags": ["grocery", "store"], "country": "AU", "classifiers": [{"category": "Food & Beverages", "type": "Retail Goods", "subcategory": "Supermarket"}], "phone": "+61 8 8983 1051", "href": "http://api.simplegeo.com/1.0/features/SG_5NJgWdm7xmU6wwNqQfqBco_-12.496365_131.044464@1303236333.json", "address": "291 Whitewood Rd", "owner": "simplegeo", "postcode": "0835"}}
{"geometry": {"type": "Point", "coordinates": [131.029281616, -12.5275402069]}, "type": "Feature", "id": "SG_7iXdZTbSLkhPzdXUjgvriY_-12.527540_131.029282@1303236333", "properties": {"province": "NT", "city": "Virginia", "name": "Fence Masters (N.T.) Pty Ltd", "tags": ["designer", "landscape", "contractor"], "country": "AU", "classifiers": [{"category": "Building & Trades", "type": "Services", "subcategory": "Landscaping Services"}], "phone": "+61 417 801 318", "href": "http://api.simplegeo.com/1.0/features/SG_7iXdZTbSLkhPzdXUjgvriY_-12.527540_131.029282@1303236333.json", "address": "PO Box 43", "owner": "simplegeo", "postcode": "0835"}}
{"geometry": {"type": "Point", "coordinates": [131.045791626, -12.4962596893]}, "type": "Feature", "id": "SG_1SRLU61xl7KeBNbHiPZawm_-12.496260_131.045792@1303236333", "properties": {"province": "NT", "city": "Howard Springs", "name": "HotSpot Fishing Tours", "tags": ["trip"], "country": "AU", "classifiers": [{"category": "Recreation", "type": "Entertainment", "subcategory": "Fishing"}], "phone": "+61 8 8983 2167", "href": "http://api.simplegeo.com/1.0/features/SG_1SRLU61xl7KeBNbHiPZawm_-12.496260_131.045792@1303236333.json", "address": "PO Box 571", "owner": "simplegeo", "postcode": "0835"}}
{"geometry": {"type": "Point", "coordinates": [131.029281616, -12.5275402069]}, "type": "Feature", "id": "SG_15BMAYPQcnrtW8cUEIKntm_-12.527540_131.029282@1303236333", "properties": {"province": "NT", "city": "Virginia", "name": "C&J Production Enterprises", "tags": ["building", "designer"], "country": "AU", "classifiers": [{"category": "Real Estate", "type": "Services", "subcategory": "Architect"}], "phone": "+61 8 8983 2812", "href": "http://api.simplegeo.com/1.0/features/SG_15BMAYPQcnrtW8cUEIKntm_-12.527540_131.029282@1303236333.json", "address": "PO Box 150", "owner": "simplegeo", "postcode": "0835"}}
{"geometry": {"type": "Point", "coordinates": [131.039840698, -12.5224809647]}, "type": "Feature", "id": "SG_1AjwSgdZ7ozhqvO12MGgko_-12.522481_131.039841@1303236333", "properties": {"province": "NT", "city": "Howard Springs", "name": "Local Liquorwise", "tags": ["store"], "country": "AU", "classifiers": [{"category": "Food & Beverages", "type": "Retail Goods", "subcategory": "Liquor & Beverages"}], "phone": "+61 8 8983 3764", "href": "http://api.simplegeo.com/1.0/features/SG_1AjwSgdZ7ozhqvO12MGgko_-12.522481_131.039841@1303236333.json", "address": "United Coolalinga 26km / 420 Stuart Hwy", "owner": "simplegeo", "postcode": "0835"}}
{"geometry": {"type": "Point", "coordinates": [131.058853149, -12.5253620148]}, "type": "Feature", "id": "SG_5tXN1KuqJkBnq1lvZFkDmW_-12.525362_131.058853@1303236333", "properties": {"province": "NT", "city": "Howard Springs", "name": "Area Contracting", "tags": ["stump", "tree", "felling", "removal"], "country": "AU", "classifiers": [{"category": "Building & Trades", "type": "Services", "subcategory": "Landscaping Services"}], "phone": "+61 8 8983 1261", "href": "http://api.simplegeo.com/1.0/features/SG_5tXN1KuqJkBnq1lvZFkDmW_-12.525362_131.058853@1303236333.json", "address": "25 Hillier Rd", "owner": "simplegeo", "postcode": "0835"}}
{"geometry": {"type": "Point", "coordinates": [131.041488647, -12.5230064392]}, "type": "Feature", "id": "SG_1tav5CpyHoC2C5VkTK0rke_-12.523006_131.041489@1303236333", "properties": {"province": "NT", "city": "Coolalinga", "name": "Territory Finance Solutions", "tags": ["loan", "finance", "mortgage"], "country": "AU", "classifiers": [{"category": "Banks & Credit Unions", "type": "Services", "subcategory": "Financial Services"}], "phone": "+61 8 8983 3100", "href": "http://api.simplegeo.com/1.0/features/SG_1tav5CpyHoC2C5VkTK0rke_-12.523006_131.041489@1303236333.json", "address": "Unit 15 Coolalinga Shopping Village-Stuart Hwy", "owner": "simplegeo", "postcode": "0835"}}
{"geometry": {"type": "Point", "coordinates": [131.045791626, -12.4962596893]}, "type": "Feature", "id": "SG_0iwmtV4PWKqUpI8PJ23vme_-12.496260_131.045792@1303236333", "properties": {"province": "NT", "city": "Howard Springs", "name": "Tall Toad Technologies", "tags": ["equipment", "networking", "installation"], "country": "AU", "classifiers": [{"category": "Professional", "type": "Services", "subcategory": "Computer Services"}], "phone": "+61 410 668 237", "href": "http://api.simplegeo.com/1.0/features/SG_0iwmtV4PWKqUpI8PJ23vme_-12.496260_131.045792@1303236333.json", "address": "PO Box 1377", "owner": "simplegeo", "postcode": "0835"}}
{"geometry": {"type": "Point", "coordinates": [131.045791626, -12.4962596893]}, "type": "Feature", "id": "SG_788mWh171jfXD2XKX3zffd_-12.496260_131.045792@1303236333", "properties": {"province": "NT", "city": "Howard Springs", "name": "Taylor Bobcat", "tags": ["earth", "excavating", "moving", "contractor"], "country": "AU", "classifiers": [{"category": "Building & Trades", "type": "Services", "subcategory": "Construction"}], "phone": "+61 418 892 332", "href": "http://api.simplegeo.com/1.0/features/SG_788mWh171jfXD2XKX3zffd_-12.496260_131.045792@1303236333.json", "address": "PO Box 18", "owner": "simplegeo", "postcode": "0835"}}
{"geometry": {"type": "Point", "coordinates": [131.043243408, -12.523856163]}, "type": "Feature", "id": "SG_4mgIoipAcMRxxAbUX8b5Ls_-12.523856_131.043243@1303236333", "properties": {"province": "NT", "city": "Coolalinga", "name": "Intrim", "tags": ["upholsterer"], "country": "AU", "classifiers": [{"category": "Retail", "type": "Services", "subcategory": "Repair Shop"}], "phone": "+61 8 8983 4134", "href": "http://api.simplegeo.com/1.0/features/SG_4mgIoipAcMRxxAbUX8b5Ls_-12.523856_131.043243@1303236333.json", "address": "Shop 12 Stavris Complex 465 Stuart Hwy", "owner": "simplegeo", "postcode": "0835"}}
{"geometry": {"type": "Point", "coordinates": [131.054153442, -12.4883890152]}, "type": "Feature", "id": "SG_32rKaMOStgybejy84n8Rz1_-12.488389_131.054153@1303236333", "properties": {"province": "NT", "city": "Howard Springs", "name": "Balancing Accounts", "tags": ["accountant", "auditor"], "country": "AU", "classifiers": [{"category": "Professional", "type": "Services", "subcategory": "Accounting & Tax Preparation"}], "phone": "+61 418 504 504", "href": "http://api.simplegeo.com/1.0/features/SG_32rKaMOStgybejy84n8Rz1_-12.488389_131.054153@1303236333.json", "address": "50 Currawong Drv", "owner": "simplegeo", "postcode": "0835"}}
{"geometry": {"type": "Point", "coordinates": [131.041473389, -12.523059845]}, "type": "Feature", "id": "SG_0WNw7mHEMOZ8re1b4bqpRo_-12.523060_131.041473@1303236333", "properties": {"province": "NT", "city": "Coolalinga", "name": "Chianti & Coffee", "country": "AU", "classifiers": [{"category": "Restaurant", "type": "Food & Drink", "subcategory": ""}], "phone": "+61 8 8983 2766", "href": "http://api.simplegeo.com/1.0/features/SG_0WNw7mHEMOZ8re1b4bqpRo_-12.523060_131.041473@1303236333.json", "address": "Coolalinga Shopping Centre Shop 10", "owner": "simplegeo", "postcode": "0835"}}
{"geometry": {"type": "Point", "coordinates": [131.044464111, -12.4963645935]}, "type": "Feature", "id": "SG_0CLGHpvL50oIkjYCKMtB7N_-12.496365_131.044464@1303236333", "properties": {"province": "NT", "city": "Howard Springs", "name": "Shearing Shed The", "tags": ["hairdresser"], "country": "AU", "classifiers": [{"category": "Personal", "type": "Services", "subcategory": "Beauty Salon"}], "phone": "+61 8 8983 2828", "href": "http://api.simplegeo.com/1.0/features/SG_0CLGHpvL50oIkjYCKMtB7N_-12.496365_131.044464@1303236333.json", "address": "290 Whitewood Rd", "owner": "simplegeo", "postcode": "0835"}}
{"geometry": {"type": "Point", "coordinates": [131.029403686, -12.5157346725]}, "type": "Feature", "id": "SG_0oQvMpQAy7Cls8LCkD4q0S_-12.515735_131.029404@1303236333", "properties": {"province": "NT", "city": "Virginia", "name": "Virginia Childcare Centre", "country": "AU", "classifiers": [{"category": "Social Services", "type": "Services", "subcategory": "Child Care"}], "phone": "+61 8 8983 1148", "href": "http://api.simplegeo.com/1.0/features/SG_0oQvMpQAy7Cls8LCkD4q0S_-12.515735_131.029404@1303236333.json", "address": "Lot 8 Virginia Rd", "owner": "simplegeo", "postcode": "0835"}}
{"geometry": {"type": "Point", "coordinates": [131.070632935, -12.4652204514]}, "type": "Feature", "id": "SG_4T1bPzyNjOQSnxMMQ4kOOk_-12.465220_131.070633@1303236333", "properties": {"province": "NT", "city": "Howard Springs", "name": "MG Plumbing Services", "tags": ["plumber", "gasfitters"], "country": "AU", "classifiers": [{"category": "Building & Trades", "type": "Services", "subcategory": "Plumbing"}], "phone": "+61 8 8983 1389", "href": "http://api.simplegeo.com/1.0/features/SG_4T1bPzyNjOQSnxMMQ4kOOk_-12.465220_131.070633@1303236333.json", "address": "\"Howard River Park\" Bronzewing Ave", "owner": "simplegeo", "postcode": "0835"}}
{"geometry": {"type": "Point", "coordinates": [131.045791626, -12.4962596893]}, "type": "Feature", "id": "SG_26Gw7PINYIzdoP4oJ4BfrW_-12.496260_131.045792@1303236333", "properties": {"province": "NT", "city": "Howard Springs", "name": "Custom Pools", "tags": ["pool", "swimming"], "country": "AU", "classifiers": [{"category": "Building & Trades", "type": "Services", "subcategory": "Construction"}], "phone": "+61 8 8983 2771", "href": "http://api.simplegeo.com/1.0/features/SG_26Gw7PINYIzdoP4oJ4BfrW_-12.496260_131.045792@1303236333.json", "address": "PO Box 1425", "owner": "simplegeo", "postcode": "0835"}}
{"geometry": {"type": "Point", "coordinates": [131.041488647, -12.5230064392]}, "type": "Feature", "id": "SG_44XRc4MR0kRshl81BOYg0o_-12.523006_131.041489@1303236333", "properties": {"province": "NT", "city": "Coolalinga", "name": "Saddleworld", "tags": ["feed", "supplement", "stock"], "country": "AU", "classifiers": [{"category": "Wholesale", "type": "Manufacturing & Wholesale Goods", "subcategory": "Farm Supplies"}], "phone": "+61 8 8983 2811", "href": "http://api.simplegeo.com/1.0/features/SG_44XRc4MR0kRshl81BOYg0o_-12.523006_131.041489@1303236333.json", "address": "Stuart Hwy", "owner": "simplegeo", "postcode": "0835"}}
{"geometry": {"type": "Point", "coordinates": [131.045791626, -12.4962596893]}, "type": "Feature", "id": "SG_4sxb5pSaclkCHchDKrxpYb_-12.496260_131.045792@1303236333", "properties": {"province": "NT", "city": "Howard Springs", "name": "Skyline Scaffs Pty Ltd", "tags": ["scaffolding"], "country": "AU", "classifiers": [{"category": "Building & Trades", "type": "Services", "subcategory": "Construction"}], "phone": "+61 8 8983 3704", "href": "http://api.simplegeo.com/1.0/features/SG_4sxb5pSaclkCHchDKrxpYb_-12.496260_131.045792@1303236333.json", "address": "PO Box 69", "owner": "simplegeo", "postcode": "0835"}}
{"geometry": {"type": "Point", "coordinates": [131.049682617, -12.5275087357]}, "type": "Feature", "id": "SG_0t86HP7Wyfr4bSWN5IWIzk_-12.527509_131.049683@1303236333", "properties": {"province": "NT", "city": "Howard Springs", "name": "Girraween Nursery", "country": "AU", "classifiers": [{"category": "Farming", "type": "Manufacturing & Wholesale Goods", "subcategory": "Nursery"}], "phone": "+61 8 8983 2001", "href": "http://api.simplegeo.com/1.0/features/SG_0t86HP7Wyfr4bSWN5IWIzk_-12.527509_131.049683@1303236333.json", "address": "Lot 15 Edelsten Rd", "owner": "simplegeo", "postcode": "0835"}}
{"geometry": {"type": "Point", "coordinates": [131.054138184, -12.5219364166]}, "type": "Feature", "id": "SG_3NYYBuNjhOu7tpJxLUH87I_-12.521936_131.054138@1303236333", "properties": {"province": "NT", "city": "Howard Springs", "name": "Mihailou Bros", "tags": ["contractor"], "country": "AU", "classifiers": [{"category": "Building & Trades", "type": "Services", "subcategory": "Construction"}], "phone": "+61 8 8983 1443", "href": "http://api.simplegeo.com/1.0/features/SG_3NYYBuNjhOu7tpJxLUH87I_-12.521936_131.054138@1303236333.json", "address": "44 Mahaffey Rd", "owner": "simplegeo", "postcode": "0835"}}
{"geometry": {"type": "Point", "coordinates": [131.045791626, -12.4962596893]}, "type": "Feature", "id": "SG_1EAnatOXc9vRUjUPn1WMqe_-12.496260_131.045792@1303236333", "properties": {"province": "NT", "city": "Howard Springs", "name": "Matrix Business Services", "tags": ["bookkeeping"], "country": "AU", "classifiers": [{"category": "Professional", "type": "Services", "subcategory": "Accounting & Tax Preparation"}], "phone": "+61 8 8988 9413", "href": "http://api.simplegeo.com/1.0/features/SG_1EAnatOXc9vRUjUPn1WMqe_-12.496260_131.045792@1303236333.json", "address": "PO Box 1207", "owner": "simplegeo", "postcode": "0835"}}
{"geometry": {"type": "Point", "coordinates": [131.019042969, -12.5068502426]}, "type": "Feature", "id": "SG_4LfcwHkMQdagGao1gD81YH_-12.506850_131.019043@1303236333", "properties": {"province": "NT", "city": "Howard Springs", "name": "Coolalinga Veterinary Clinic & Hospital", "tags": ["surgeon"], "country": "AU", "classifiers": [{"category": "Retail", "type": "Services", "subcategory": "Veterinary Services"}], "phone": "+61 8 8983 1473", "href": "http://api.simplegeo.com/1.0/features/SG_4LfcwHkMQdagGao1gD81YH_-12.506850_131.019043@1303236333.json", "address": "Cnr Morgan Rd & Stuart Hwy", "owner": "simplegeo", "postcode": "0835"}}
{"geometry": {"type": "Point", "coordinates": [131.046615601, -12.5039100647]}, "type": "Feature", "id": "SG_2pVnpDRqmBQuPEjGhIglIv_-12.503910_131.046616@1303236333", "properties": {"province": "NT", "city": "Howard Springs", "name": "Dat Wreck (NT)", "tags": ["recyclers"], "country": "AU", "classifiers": [{"category": "Wholesale", "type": "Manufacturing & Wholesale Goods", "subcategory": "Auto Parts"}], "phone": "+61 8 8983 3475", "href": "http://api.simplegeo.com/1.0/features/SG_2pVnpDRqmBQuPEjGhIglIv_-12.503910_131.046616@1303236333.json", "address": "94 Barker Rd", "owner": "simplegeo", "postcode": "0835"}}
{"geometry": {"type": "Point", "coordinates": [131.029403686, -12.5157346725]}, "type": "Feature", "id": "SG_2jdxax72HQKFpvqlEhy3o4_-12.515735_131.029404@1303236333", "properties": {"province": "NT", "city": "Howard Springs", "name": "17 Miles Service & Muffler Centre", "country": "AU", "classifiers": [{"category": "Autos & Motor Vehicles", "type": "Retail Goods", "subcategory": "Fuel & Gas Station"}], "phone": "+61 8 8983 1511", "href": "http://api.simplegeo.com/1.0/features/SG_2jdxax72HQKFpvqlEhy3o4_-12.515735_131.029404@1303236333.json", "address": "Lot 1 Virginia Rd", "owner": "simplegeo", "postcode": "0835"}}
{"geometry": {"type": "Point", "coordinates": [131.025360107, -12.5232257843]}, "type": "Feature", "id": "SG_2rQL5dHK8lfxWoh7SN0syB_-12.523226_131.025360@1303236333", "properties": {"province": "NT", "city": "Virginia", "name": "DMAK Electrical", "tags": ["control", "equipment", "switch"], "country": "AU", "classifiers": [{"category": "Wholesale", "type": "Manufacturing & Wholesale Goods", "subcategory": "Electrical"}], "phone": "+61 417 882 576", "href": "http://api.simplegeo.com/1.0/features/SG_2rQL5dHK8lfxWoh7SN0syB_-12.523226_131.025360@1303236333.json", "address": "27 Ryan Rd", "owner": "simplegeo", "postcode": "0835"}}
{"geometry": {"type": "Point", "coordinates": [131.045791626, -12.4962596893]}, "type": "Feature", "id": "SG_5S6DZCkXjFwxw3crLKuwgA_-12.496260_131.045792@1303236333", "properties": {"province": "NT", "city": "Howard Springs", "name": "Mick Taylor Construction", "tags": ["roof"], "country": "AU", "classifiers": [{"category": "Building & Trades", "type": "Services", "subcategory": "Construction"}], "phone": "+61 404 486 922", "href": "http://api.simplegeo.com/1.0/features/SG_5S6DZCkXjFwxw3crLKuwgA_-12.496260_131.045792@1303236333.json", "address": "PO Box 1076", "owner": "simplegeo", "postcode": "0835"}}
{"geometry": {"type": "Point", "coordinates": [131.068725586, -12.4778852463]}, "type": "Feature", "id": "SG_2YcyIpbwHWj0tZynz8CSrN_-12.477885_131.068726@1303236333", "properties": {"province": "NT", "city": "Howard Springs", "name": "Mackas Bobcat Hire", "tags": ["earth", "excavating", "moving", "contractor"], "country": "AU", "classifiers": [{"category": "Building & Trades", "type": "Services", "subcategory": "Construction"}], "phone": "+61 412 689 288", "href": "http://api.simplegeo.com/1.0/features/SG_2YcyIpbwHWj0tZynz8CSrN_-12.477885_131.068726@1303236333.json", "address": "15 Ti Tree Rd", "owner": "simplegeo", "postcode": "0835"}}
{"geometry": {"type": "Point", "coordinates": [131.032867432, -12.5167131424]}, "type": "Feature", "id": "SG_73IYeg02peqvBIRMxNHH9D_-12.516713_131.032867@1303236333", "properties": {"province": "NT", "city": "Howard Springs", "name": "Howard Springs Health Centre", "tags": ["medical", "practitioner"], "country": "AU", "classifiers": [{"category": "Health Services", "type": "Services", "subcategory": "Doctor"}], "phone": "+61 8 8983 1096", "href": "http://api.simplegeo.com/1.0/features/SG_73IYeg02peqvBIRMxNHH9D_-12.516713_131.032867@1303236333.json", "address": "The 18 Mile Stuart Hwy", "owner": "simplegeo", "postcode": "0835"}}
{"geometry": {"type": "Point", "coordinates": [131.068725586, -12.4778852463]}, "type": "Feature", "id": "SG_20wwMCtnebsc6Tg5GxFU8P_-12.477885_131.068726@1303236333", "properties": {"province": "NT", "city": "Howard Springs", "name": "Alround Bookkeeping Services", "tags": ["bookkeeping"], "country": "AU", "classifiers": [{"category": "Professional", "type": "Services", "subcategory": "Accounting & Tax Preparation"}], "phone": "+61 408 358 404", "href": "http://api.simplegeo.com/1.0/features/SG_20wwMCtnebsc6Tg5GxFU8P_-12.477885_131.068726@1303236333.json", "address": "15 Ti Tree Rd", "owner": "simplegeo", "postcode": "0835"}}
{"geometry": {"type": "Point", "coordinates": [131.043716431, -12.5254411697]}, "type": "Feature", "id": "SG_3OqRWUHICmTfzfn4ZSFTCP_-12.525441_131.043716@1303236333", "properties": {"province": "NT", "city": "Coolalinga", "name": "H2O Trade Centre Pty Ltd", "tags": ["irrigation", "reticulation", "system"], "country": "AU", "classifiers": [{"category": "Farming", "type": "Manufacturing & Wholesale Goods", "subcategory": "Farm & Veterinary Services"}], "phone": "+61 8 8983 2611", "href": "http://api.simplegeo.com/1.0/features/SG_3OqRWUHICmTfzfn4ZSFTCP_-12.525441_131.043716@1303236333.json", "address": "15 Henning Rd", "owner": "simplegeo", "postcode": "0835"}}
{"geometry": {"type": "Point", "coordinates": [131.041488647, -12.5230064392]}, "type": "Feature", "id": "SG_1Tz5U4K81jKm3izhZonpIB_-12.523006_131.041489@1303236333", "properties": {"province": "NT", "city": "Coolalinga", "name": "Gazzas Bobcat Truck Hire", "tags": ["earth", "excavating", "moving", "contractor"], "country": "AU", "classifiers": [{"category": "Building & Trades", "type": "Services", "subcategory": "Construction"}], "phone": "+61 411 640 048", "href": "http://api.simplegeo.com/1.0/features/SG_1Tz5U4K81jKm3izhZonpIB_-12.523006_131.041489@1303236333.json", "address": "Coolalinga Shopping Centre Stuart Hwy", "owner": "simplegeo", "postcode": "0835"}}